@Sonygps/ver5.0/wgs-84/20140418205914.000/
@Sonygpsoption/0/20140418205915.000/20140418205916.000/
$GPGGA,205916.000,2624.5062,N,8007.1765,W,1,0,,,M,,M,,*50
$GPRMC,205916.000,A,2624.5062,N,8007.1765,W,0.17,,180414,,,A*5C
$GPGGA,205917.000,2624.5059,N,8007.1766,W,1,0,,,M,,M,,*5A
$GPRMC,205917.000,A,2624.5059,N,8007.1766,W,0.48,,180414,,,A*5C
$GPGGA,205918.000,2624.5057,N,8007.1766,W,1,0,,,M,,M,,*5B
$GPRMC,205918.000,A,2624.5057,N,8007.1766,W,1.46,,180414,,,A*52
$GPGGA,205919.000,2624.5056,N,8007.1764,W,1,0,,,M,,M,,*59
$GPRMC,205919.000,A,2624.5056,N,8007.1764,W,1.85,,180414,,,A*5F
$GPGGA,205920.000,2624.5051,N,8007.1754,W,1,0,,,M,,M,,*57
$GPRMC,205920.000,A,2624.5051,N,8007.1754,W,2.53,,180414,,,A*59
$GPGGA,205921.000,2624.5041,N,8007.1753,W,1,0,,,M,,M,,*50
$GPRMC,205921.000,A,2624.5041,N,8007.1753,W,3.06,,180414,,,A*5F
$GPGGA,205922.000,2624.5032,N,8007.1754,W,1,0,,,M,,M,,*50
$GPRMC,205922.000,A,2624.5032,N,8007.1754,W,3.29,,180414,,,A*52
$GPGGA,205923.000,2624.5023,N,8007.1754,W,1,0,,,M,,M,,*51
$GPRMC,205923.000,A,2624.5023,N,8007.1754,W,3.33,,180414,,,A*58
$GPGGA,205924.000,2624.5014,N,8007.1749,W,1,0,,,M,,M,,*5E
$GPRMC,205924.000,A,2624.5014,N,8007.1749,W,3.12,,180414,,,A*54
$GPGGA,205925.000,2624.5009,N,8007.1750,W,1,0,,,M,,M,,*5B
$GPRMC,205925.000,A,2624.5009,N,8007.1750,W,2.69,,180414,,,A*5C
$GPGGA,205926.000,2624.5006,N,8007.1748,W,1,0,,,M,,M,,*5E
$GPRMC,205926.000,A,2624.5006,N,8007.1748,W,2.44,,180414,,,A*56
$GPGGA,205927.000,2624.5000,N,8007.1748,W,1,0,,,M,,M,,*59
$GPRMC,205927.000,A,2624.5000,N,8007.1748,W,2.50,,180414,,,A*54
$GPGGA,205928.000,2624.4989,N,8007.1747,W,1,0,,,M,,M,,*50
$GPRMC,205928.000,A,2624.4989,N,8007.1747,W,2.82,,180414,,,A*52
$GPGGA,205929.000,2624.4981,N,8007.1761,W,1,0,,,M,,M,,*5D
$GPRMC,205929.000,A,2624.4981,N,8007.1761,W,3.17,,180414,,,A*52
$GPGGA,205930.000,2624.4962,N,8007.1795,W,1,0,,,M,,M,,*53
$GPRMC,205930.000,A,2624.4962,N,8007.1795,W,5.19,,180414,,,A*54
$GPGGA,205931.000,2624.4946,N,8007.1831,W,1,0,,,M,,M,,*55
$GPRMC,205931.000,A,2624.4946,N,8007.1831,W,7.00,,180414,,,A*58
$GPGGA,205932.000,2624.4931,N,8007.1872,W,1,0,,,M,,M,,*51
$GPRMC,205932.000,A,2624.4931,N,8007.1872,W,8.79,,180414,,,A*5D
$GPGGA,205933.000,2624.4922,N,8007.1922,W,1,0,,,M,,M,,*56
$GPRMC,205933.000,A,2624.4922,N,8007.1922,W,10.75,,180414,,,A*6F
$GPGGA,205934.000,2624.4922,N,8007.1973,W,1,0,,,M,,M,,*55
$GPRMC,205934.000,A,2624.4922,N,8007.1973,W,12.14,,180414,,,A*69
$GPGGA,205935.000,2624.4925,N,8007.2034,W,1,0,,,M,,M,,*5A
$GPRMC,205935.000,A,2624.4925,N,8007.2034,W,13.91,,180414,,,A*6A
$GPGGA,205936.000,2624.4926,N,8007.2107,W,1,0,,,M,,M,,*5B
$GPRMC,205936.000,A,2624.4926,N,8007.2107,W,16.25,,180414,,,A*61
$GPGGA,205937.000,2624.4924,N,8007.2190,W,1,0,,,M,,M,,*56
$GPRMC,205937.000,A,2624.4924,N,8007.2190,W,18.29,,180414,,,A*6E
$GPGGA,205938.000,2624.4924,N,8007.2261,W,1,0,,,M,,M,,*54
$GPRMC,205938.000,A,2624.4924,N,8007.2261,W,19.04,,180414,,,A*62
$GPGGA,205939.000,2624.4929,N,8007.2323,W,1,0,,,M,,M,,*5F
$GPRMC,205939.000,A,2624.4929,N,8007.2323,W,19.04,,180414,,,A*69
$GPGGA,205940.000,2624.4932,N,8007.2381,W,1,0,,,M,,M,,*53
$GPRMC,205940.000,A,2624.4932,N,8007.2381,W,18.58,,180414,,,A*6D
$GPGGA,205941.000,2624.4940,N,8007.2471,W,1,0,,,M,,M,,*5F
$GPRMC,205941.000,A,2624.4940,N,8007.2471,W,18.59,,180414,,,A*60
$GPGGA,205942.000,2624.4942,N,8007.2525,W,1,0,,,M,,M,,*5E
$GPRMC,205942.000,A,2624.4942,N,8007.2525,W,18.08,,180414,,,A*65
$GPGGA,205943.000,2624.4937,N,8007.2604,W,1,0,,,M,,M,,*5D
$GPRMC,205943.000,A,2624.4937,N,8007.2604,W,17.45,,180414,,,A*60
$GPGGA,205944.000,2624.4937,N,8007.2647,W,1,0,,,M,,M,,*5D
$GPRMC,205944.000,A,2624.4937,N,8007.2647,W,15.76,,180414,,,A*62
$GPGGA,205945.000,2624.4936,N,8007.2686,W,1,0,,,M,,M,,*50
$GPRMC,205945.000,A,2624.4936,N,8007.2686,W,14.20,,180414,,,A*6D
$GPGGA,205946.000,2624.4932,N,8007.2714,W,1,0,,,M,,M,,*5D
$GPRMC,205946.000,A,2624.4932,N,8007.2714,W,12.63,,180414,,,A*61
$GPGGA,205947.000,2624.4917,N,8007.2732,W,1,0,,,M,,M,,*5F
$GPRMC,205947.000,A,2624.4917,N,8007.2732,W,10.93,,180414,,,A*6E
$GPGGA,205948.000,2624.4911,N,8007.2742,W,1,0,,,M,,M,,*51
$GPRMC,205948.000,A,2624.4911,N,8007.2742,W,9.22,,180414,,,A*52
$GPGGA,205949.000,2624.4917,N,8007.2740,W,1,0,,,M,,M,,*54
$GPRMC,205949.000,A,2624.4917,N,8007.2740,W,7.00,,180414,,,A*59
$GPGGA,205950.000,2624.4911,N,8007.2741,W,1,0,,,M,,M,,*5B
$GPRMC,205950.000,A,2624.4911,N,8007.2741,W,5.92,,180414,,,A*5F
$GPGGA,205951.000,2624.4913,N,8007.2741,W,1,0,,,M,,M,,*58
$GPRMC,205951.000,A,2624.4913,N,8007.2741,W,4.70,,180414,,,A*51
$GPGGA,205952.000,2624.4920,N,8007.2734,W,1,0,,,M,,M,,*59
$GPRMC,205952.000,A,2624.4920,N,8007.2734,W,2.93,,180414,,,A*5B
$GPGGA,205953.000,2624.4923,N,8007.2728,W,1,0,,,M,,M,,*56
$GPRMC,205953.000,A,2624.4923,N,8007.2728,W,1.93,,180414,,,A*57
$GPGGA,205954.000,2624.4922,N,8007.2731,W,1,0,,,M,,M,,*58
$GPRMC,205954.000,A,2624.4922,N,8007.2731,W,1.47,,180414,,,A*50
$GPGGA,205955.000,2624.4922,N,8007.2732,W,1,0,,,M,,M,,*5A
$GPRMC,205955.000,A,2624.4922,N,8007.2732,W,1.23,,180414,,,A*50
$GPGGA,205956.000,2624.4920,N,8007.2735,W,1,0,,,M,,M,,*5C
$GPRMC,205956.000,A,2624.4920,N,8007.2735,W,1.18,,180414,,,A*5E
$GPGGA,205957.000,2624.4918,N,8007.2738,W,1,0,,,M,,M,,*5B
$GPRMC,205957.000,A,2624.4918,N,8007.2738,W,1.02,,180414,,,A*52
$GPGGA,205958.000,2624.4916,N,8007.2740,W,1,0,,,M,,M,,*55
$GPRMC,205958.000,A,2624.4916,N,8007.2740,W,0.88,,180414,,,A*5F
$GPGGA,205959.000,2624.4914,N,8007.2741,W,1,0,,,M,,M,,*57
$GPRMC,205959.000,A,2624.4914,N,8007.2741,W,0.84,,180414,,,A*51
$GPGGA,210000.000,2624.4912,N,8007.2742,W,1,0,,,M,,M,,*53
$GPRMC,210000.000,A,2624.4912,N,8007.2742,W,0.93,,180414,,,A*53
$GPGGA,210001.000,2624.4909,N,8007.2743,W,1,0,,,M,,M,,*59
$GPRMC,210001.000,A,2624.4909,N,8007.2743,W,0.94,,180414,,,A*5E
$GPGGA,210002.000,2624.4906,N,8007.2743,W,1,0,,,M,,M,,*55
$GPRMC,210002.000,A,2624.4906,N,8007.2743,W,0.47,,180414,,,A*5C
$GPGGA,210003.000,2624.4905,N,8007.2744,W,1,0,,,M,,M,,*50
$GPRMC,210003.000,A,2624.4905,N,8007.2744,W,0.73,,180414,,,A*5E
$GPGGA,210004.000,2624.4904,N,8007.2745,W,1,0,,,M,,M,,*57
$GPRMC,210004.000,A,2624.4904,N,8007.2745,W,0.81,,180414,,,A*54
$GPGGA,210005.000,2624.4902,N,8007.2747,W,1,0,,,M,,M,,*52
$GPRMC,210005.000,A,2624.4902,N,8007.2747,W,0.87,,180414,,,A*57
$GPGGA,210006.000,2624.4901,N,8007.2749,W,1,0,,,M,,M,,*5C
$GPRMC,210006.000,A,2624.4901,N,8007.2749,W,0.53,,180414,,,A*50
$GPGGA,210007.000,2624.4901,N,8007.2751,W,1,0,,,M,,M,,*54
$GPRMC,210007.000,A,2624.4901,N,8007.2751,W,0.33,,180414,,,A*5E
$GPGGA,210008.000,2624.4901,N,8007.2751,W,1,0,,,M,,M,,*5B
$GPRMC,210008.000,A,2624.4901,N,8007.2751,W,0.51,,180414,,,A*55
$GPGGA,210009.000,2624.4903,N,8007.2752,W,1,0,,,M,,M,,*5B
$GPRMC,210009.000,A,2624.4903,N,8007.2752,W,0.25,,180414,,,A*56
$GPGGA,210010.000,2624.4904,N,8007.2753,W,1,0,,,M,,M,,*55
$GPRMC,210010.000,A,2624.4904,N,8007.2753,W,0.16,,180414,,,A*58
$GPGGA,210011.000,2624.4903,N,8007.2753,W,1,0,,,M,,M,,*53
$GPRMC,210011.000,A,2624.4903,N,8007.2753,W,0.30,,180414,,,A*5A
$GPGGA,210012.000,2624.4903,N,8007.2752,W,1,0,,,M,,M,,*51
$GPRMC,210012.000,A,2624.4903,N,8007.2752,W,0.31,,180414,,,A*59
$GPGGA,210013.000,2624.4902,N,8007.2752,W,1,0,,,M,,M,,*51
$GPRMC,210013.000,A,2624.4902,N,8007.2752,W,0.05,,180414,,,A*5E
$GPGGA,210014.000,2624.4902,N,8007.2752,W,1,0,,,M,,M,,*56
$GPRMC,210014.000,A,2624.4902,N,8007.2752,W,0.37,,180414,,,A*58
$GPGGA,210015.000,2624.4903,N,8007.2753,W,1,0,,,M,,M,,*57
$GPRMC,210015.000,A,2624.4903,N,8007.2753,W,0.26,,180414,,,A*59
$GPGGA,210016.000,2624.4903,N,8007.2754,W,1,0,,,M,,M,,*53
$GPRMC,210016.000,A,2624.4903,N,8007.2754,W,0.14,,180414,,,A*5C
$GPGGA,210017.000,2624.4903,N,8007.2754,W,1,0,,,M,,M,,*52
$GPRMC,210017.000,A,2624.4903,N,8007.2754,W,0.04,,180414,,,A*5C
$GPGGA,210018.000,2624.4903,N,8007.2754,W,1,0,,,M,,M,,*5D
$GPRMC,210018.000,A,2624.4903,N,8007.2754,W,0.14,,180414,,,A*52
$GPGGA,210019.000,2624.4903,N,8007.2755,W,1,0,,,M,,M,,*5D
$GPRMC,210019.000,A,2624.4903,N,8007.2755,W,0.57,,180414,,,A*55
$GPGGA,210020.000,2624.4903,N,8007.2757,W,1,0,,,M,,M,,*55
$GPRMC,210020.000,A,2624.4903,N,8007.2757,W,1.39,,180414,,,A*54
$GPGGA,210021.000,2624.4902,N,8007.2761,W,1,0,,,M,,M,,*50
$GPRMC,210021.000,A,2624.4902,N,8007.2761,W,3.46,,180414,,,A*5B
$GPGGA,210022.000,2624.4899,N,8007.2780,W,1,0,,,M,,M,,*5F
$GPRMC,210022.000,A,2624.4899,N,8007.2780,W,4.39,,180414,,,A*5B
$GPGGA,210023.000,2624.4882,N,8007.2812,W,1,0,,,M,,M,,*50
$GPRMC,210023.000,A,2624.4882,N,8007.2812,W,5.99,,180414,,,A*5F
$GPGGA,210024.000,2624.4866,N,8007.2849,W,1,0,,,M,,M,,*53
$GPRMC,210024.000,A,2624.4866,N,8007.2849,W,7.68,,180414,,,A*50
$GPGGA,210025.000,2624.4850,N,8007.2888,W,1,0,,,M,,M,,*5A
$GPRMC,210025.000,A,2624.4850,N,8007.2888,W,8.95,,180414,,,A*54
$GPGGA,210026.000,2624.4825,N,8007.2927,W,1,0,,,M,,M,,*5F
$GPRMC,210026.000,A,2624.4825,N,8007.2927,W,10.26,,180414,,,A*60
$GPGGA,210027.000,2624.4798,N,8007.2955,W,1,0,,,M,,M,,*52
$GPRMC,210027.000,A,2624.4798,N,8007.2955,W,10.95,,180414,,,A*65
$GPGGA,210028.000,2624.4775,N,8007.2964,W,1,0,,,M,,M,,*5C
$GPRMC,210028.000,A,2624.4775,N,8007.2964,W,9.94,,180414,,,A*52
$GPGGA,210029.000,2624.4732,N,8007.2981,W,1,0,,,M,,M,,*55
$GPRMC,210029.000,A,2624.4732,N,8007.2981,W,10.40,,180414,,,A*6A
$GPGGA,210030.000,2624.4686,N,8007.2993,W,1,0,,,M,,M,,*50
$GPRMC,210030.000,A,2624.4686,N,8007.2993,W,11.25,,180414,,,A*6D
$GPGGA,210031.000,2624.4636,N,8007.2994,W,1,0,,,M,,M,,*5D
$GPRMC,210031.000,A,2624.4636,N,8007.2994,W,12.06,,180414,,,A*62
$GPGGA,210032.000,2624.4555,N,8007.2991,W,1,0,,,M,,M,,*5D
$GPRMC,210032.000,A,2624.4555,N,8007.2991,W,14.35,,180414,,,A*64
$GPGGA,210033.000,2624.4437,N,8007.3002,W,1,0,,,M,,M,,*5B
$GPRMC,210033.000,A,2624.4437,N,8007.3002,W,18.20,,180414,,,A*6A
$GPGGA,210034.000,2624.4306,N,8007.3013,W,1,0,,,M,,M,,*59
$GPRMC,210034.000,A,2624.4306,N,8007.3013,W,22.58,,180414,,,A*6E
$GPGGA,210035.000,2624.4169,N,8007.3022,W,1,0,,,M,,M,,*51
$GPRMC,210035.000,A,2624.4169,N,8007.3022,W,26.63,,180414,,,A*6A
$GPGGA,210036.000,2624.4027,N,8007.3030,W,1,0,,,M,,M,,*5A
$GPRMC,210036.000,A,2624.4027,N,8007.3030,W,30.18,,180414,,,A*6A
$GPGGA,210037.000,2624.3904,N,8007.3033,W,1,0,,,M,,M,,*57
$GPRMC,210037.000,A,2624.3904,N,8007.3033,W,31.86,,180414,,,A*61
$GPGGA,210038.000,2624.3796,N,8007.3033,W,1,0,,,M,,M,,*5D
$GPRMC,210038.000,A,2624.3796,N,8007.3033,W,32.25,,180414,,,A*61
$GPGGA,210039.000,2624.3691,N,8007.3035,W,1,0,,,M,,M,,*5C
$GPRMC,210039.000,A,2624.3691,N,8007.3035,W,31.94,,180414,,,A*69
$GPGGA,210040.000,2624.3598,N,8007.3036,W,1,0,,,M,,M,,*5B
$GPRMC,210040.000,A,2624.3598,N,8007.3036,W,30.48,,180414,,,A*6E
$GPGGA,210041.000,2624.3509,N,8007.3039,W,1,0,,,M,,M,,*5D
$GPRMC,210041.000,A,2624.3509,N,8007.3039,W,29.09,,180414,,,A*65
$GPGGA,210042.000,2624.3433,N,8007.3038,W,1,0,,,M,,M,,*57
$GPRMC,210042.000,A,2624.3433,N,8007.3038,W,27.56,,180414,,,A*6B
$GPGGA,210043.000,2624.3367,N,8007.3037,W,1,0,,,M,,M,,*5F
$GPRMC,210043.000,A,2624.3367,N,8007.3037,W,25.80,,180414,,,A*6A
$GPGGA,210044.000,2624.3308,N,8007.3042,W,1,0,,,M,,M,,*53
$GPRMC,210044.000,A,2624.3308,N,8007.3042,W,23.98,,180414,,,A*69
$GPGGA,210045.000,2624.3256,N,8007.3044,W,1,0,,,M,,M,,*5E
$GPRMC,210045.000,A,2624.3256,N,8007.3044,W,22.26,,180414,,,A*60
$GPGGA,210046.000,2624.3214,N,8007.3042,W,1,0,,,M,,M,,*5D
$GPRMC,210046.000,A,2624.3214,N,8007.3042,W,20.23,,180414,,,A*64
$GPGGA,210047.000,2624.3178,N,8007.3042,W,1,0,,,M,,M,,*55
$GPRMC,210047.000,A,2624.3178,N,8007.3042,W,18.59,,180414,,,A*6A
$GPGGA,210048.000,2624.3138,N,8007.3043,W,1,0,,,M,,M,,*5F
$GPRMC,210048.000,A,2624.3138,N,8007.3043,W,17.62,,180414,,,A*67
$GPGGA,210049.000,2624.3105,N,8007.3040,W,1,0,,,M,,M,,*53
$GPRMC,210049.000,A,2624.3105,N,8007.3040,W,16.24,,180414,,,A*68
$GPGGA,210050.000,2624.3078,N,8007.3038,W,1,0,,,M,,M,,*5F
$GPRMC,210050.000,A,2624.3078,N,8007.3038,W,14.70,,180414,,,A*67
$GPGGA,210051.000,2624.3069,N,8007.3037,W,1,0,,,M,,M,,*51
$GPRMC,210051.000,A,2624.3069,N,8007.3037,W,12.06,,180414,,,A*6E
$GPGGA,210052.000,2624.3065,N,8007.3035,W,1,0,,,M,,M,,*5C
$GPRMC,210052.000,A,2624.3065,N,8007.3035,W,9.72,,180414,,,A*5A
$GPGGA,210053.000,2624.3059,N,8007.3033,W,1,0,,,M,,M,,*54
$GPRMC,210053.000,A,2624.3059,N,8007.3033,W,8.25,,180414,,,A*51
$GPGGA,210054.000,2624.3053,N,8007.3032,W,1,0,,,M,,M,,*58
$GPRMC,210054.000,A,2624.3053,N,8007.3032,W,7.12,,180414,,,A*56
$GPGGA,210055.000,2624.3093,N,8007.3029,W,1,0,,,M,,M,,*5F
$GPRMC,210055.000,A,2624.3093,N,8007.3029,W,4.87,,180414,,,A*5E
$GPGGA,210056.000,2624.3089,N,8007.3025,W,1,0,,,M,,M,,*5B
$GPRMC,210056.000,A,2624.3089,N,8007.3025,W,4.94,,180414,,,A*58
$GPGGA,210057.000,2624.3077,N,8007.3023,W,1,0,,,M,,M,,*5D
$GPRMC,210057.000,A,2624.3077,N,8007.3023,W,5.74,,180414,,,A*51
$GPGGA,210058.000,2624.3062,N,8007.3017,W,1,0,,,M,,M,,*51
$GPRMC,210058.000,A,2624.3062,N,8007.3017,W,6.60,,180414,,,A*5B
$GPGGA,210059.000,2624.3040,N,8007.3010,W,1,0,,,M,,M,,*57
$GPRMC,210059.000,A,2624.3040,N,8007.3010,W,8.23,,180414,,,A*54
$GPGGA,210100.000,2624.3013,N,8007.3003,W,1,0,,,M,,M,,*5E
$GPRMC,210100.000,A,2624.3013,N,8007.3003,W,9.62,,180414,,,A*59
$GPGGA,210101.000,2624.2979,N,8007.3000,W,1,0,,,M,,M,,*58
$GPRMC,210101.000,A,2624.2979,N,8007.3000,W,10.79,,180414,,,A*6D
$GPGGA,210102.000,2624.2937,N,8007.3000,W,1,0,,,M,,M,,*51
$GPRMC,210102.000,A,2624.2937,N,8007.3000,W,12.61,,180414,,,A*6F
$GPGGA,210103.000,2624.2874,N,8007.2997,W,1,0,,,M,,M,,*50
$GPRMC,210103.000,A,2624.2874,N,8007.2997,W,15.69,,180414,,,A*61
$GPGGA,210104.000,2624.2817,N,8007.2994,W,1,0,,,M,,M,,*51
$GPRMC,210104.000,A,2624.2817,N,8007.2994,W,17.25,,180414,,,A*6A
$GPGGA,210105.000,2624.2736,N,8007.2990,W,1,0,,,M,,M,,*58
$GPRMC,210105.000,A,2624.2736,N,8007.2990,W,20.36,,180414,,,A*65
$GPGGA,210106.000,2624.2659,N,8007.2982,W,1,0,,,M,,M,,*50
$GPRMC,210106.000,A,2624.2659,N,8007.2982,W,22.17,,180414,,,A*6C
$GPGGA,210107.000,2624.2558,N,8007.2978,W,1,0,,,M,,M,,*56
$GPRMC,210107.000,A,2624.2558,N,8007.2978,W,25.37,,180414,,,A*6F
$GPGGA,210108.000,2624.2474,N,8007.2973,W,1,0,,,M,,M,,*5D
$GPRMC,210108.000,A,2624.2474,N,8007.2973,W,26.54,,180414,,,A*62
$GPGGA,210109.000,2624.2342,N,8007.2969,W,1,0,,,M,,M,,*55
$GPRMC,210109.000,A,2624.2342,N,8007.2969,W,28.95,,180414,,,A*69
$GPGGA,210110.000,2624.2188,N,8007.2967,W,1,0,,,M,,M,,*57
$GPRMC,210110.000,A,2624.2188,N,8007.2967,W,33.00,,180414,,,A*6D
$GPGGA,210111.000,2624.2063,N,8007.2964,W,1,0,,,M,,M,,*51
$GPRMC,210111.000,A,2624.2063,N,8007.2964,W,35.94,,180414,,,A*60
$GPGGA,210112.000,2624.1939,N,8007.2962,W,1,0,,,M,,M,,*51
$GPRMC,210112.000,A,2624.1939,N,8007.2962,W,37.96,,180414,,,A*60
$GPGGA,210113.000,2624.1822,N,8007.2959,W,1,0,,,M,,M,,*53
$GPRMC,210113.000,A,2624.1822,N,8007.2959,W,38.83,,180414,,,A*69
$GPGGA,210114.000,2624.1705,N,8007.2956,W,1,0,,,M,,M,,*51
$GPRMC,210114.000,A,2624.1705,N,8007.2956,W,39.57,,180414,,,A*63
$GPGGA,210115.000,2624.1591,N,8007.2950,W,1,0,,,M,,M,,*59
$GPRMC,210115.000,A,2624.1591,N,8007.2950,W,39.96,,180414,,,A*66
$GPGGA,210116.000,2624.1478,N,8007.2944,W,1,0,,,M,,M,,*59
$GPRMC,210116.000,A,2624.1478,N,8007.2944,W,40.15,,180414,,,A*63
$GPGGA,210117.000,2624.1366,N,8007.2939,W,1,0,,,M,,M,,*5A
$GPRMC,210117.000,A,2624.1366,N,8007.2939,W,40.12,,180414,,,A*67
$GPGGA,210118.000,2624.1235,N,8007.2938,W,1,0,,,M,,M,,*53
$GPRMC,210118.000,A,2624.1235,N,8007.2938,W,39.88,,180414,,,A*63
$GPGGA,210119.000,2624.1108,N,8007.2936,W,1,0,,,M,,M,,*51
$GPRMC,210119.000,A,2624.1108,N,8007.2936,W,39.20,,180414,,,A*63
$GPGGA,210120.000,2624.0997,N,8007.2936,W,1,0,,,M,,M,,*54
$GPRMC,210120.000,A,2624.0997,N,8007.2936,W,38.35,,180414,,,A*63
$GPGGA,210121.000,2624.0893,N,8007.2934,W,1,0,,,M,,M,,*52
$GPRMC,210121.000,A,2624.0893,N,8007.2934,W,37.49,,180414,,,A*61
$GPGGA,210122.000,2624.0783,N,8007.2930,W,1,0,,,M,,M,,*5B
$GPRMC,210122.000,A,2624.0783,N,8007.2930,W,37.00,,180414,,,A*65
$GPGGA,210123.000,2624.0682,N,8007.2927,W,1,0,,,M,,M,,*5C
$GPRMC,210123.000,A,2624.0682,N,8007.2927,W,36.68,,180414,,,A*6D
$GPGGA,210124.000,2624.0582,N,8007.2924,W,1,0,,,M,,M,,*5B
$GPRMC,210124.000,A,2624.0582,N,8007.2924,W,36.42,,180414,,,A*62
$GPGGA,210125.000,2624.0483,N,8007.2918,W,1,0,,,M,,M,,*55
$GPRMC,210125.000,A,2624.0483,N,8007.2918,W,36.05,,180414,,,A*6F
$GPGGA,210126.000,2624.0385,N,8007.2911,W,1,0,,,M,,M,,*5E
$GPRMC,210126.000,A,2624.0385,N,8007.2911,W,35.82,,180414,,,A*68
$GPGGA,210127.000,2624.0289,N,8007.2904,W,1,0,,,M,,M,,*56
$GPRMC,210127.000,A,2624.0289,N,8007.2904,W,35.45,,180414,,,A*6B
$GPGGA,210128.000,2624.0192,N,8007.2901,W,1,0,,,M,,M,,*55
$GPRMC,210128.000,A,2624.0192,N,8007.2901,W,35.43,,180414,,,A*6E
$GPGGA,210129.000,2624.0098,N,8007.2896,W,1,0,,,M,,M,,*50
$GPRMC,210129.000,A,2624.0098,N,8007.2896,W,35.06,,180414,,,A*6A
$GPGGA,210130.000,2624.0010,N,8007.2891,W,1,0,,,M,,M,,*5F
$GPRMC,210130.000,A,2624.0010,N,8007.2891,W,34.49,,180414,,,A*6F
$GPGGA,210131.000,2623.9925,N,8007.2888,W,1,0,,,M,,M,,*57
$GPRMC,210131.000,A,2623.9925,N,8007.2888,W,33.56,,180414,,,A*6E
$GPGGA,210132.000,2623.9833,N,8007.2887,W,1,0,,,M,,M,,*5D
$GPRMC,210132.000,A,2623.9833,N,8007.2887,W,33.24,,180414,,,A*61
$GPGGA,210133.000,2623.9734,N,8007.2885,W,1,0,,,M,,M,,*56
$GPRMC,210133.000,A,2623.9734,N,8007.2885,W,34.11,,180414,,,A*6B
$GPGGA,210134.000,2623.9637,N,8007.2886,W,1,0,,,M,,M,,*50
$GPRMC,210134.000,A,2623.9637,N,8007.2886,W,34.43,,180414,,,A*6A
$GPGGA,210135.000,2623.9537,N,8007.2886,W,1,0,,,M,,M,,*52
$GPRMC,210135.000,A,2623.9537,N,8007.2886,W,34.98,,180414,,,A*6E
$GPGGA,210136.000,2623.9434,N,8007.2885,W,1,0,,,M,,M,,*50
$GPRMC,210136.000,A,2623.9434,N,8007.2885,W,35.62,,180414,,,A*68
$GPGGA,210137.000,2623.9330,N,8007.2882,W,1,0,,,M,,M,,*55
$GPRMC,210137.000,A,2623.9330,N,8007.2882,W,36.53,,180414,,,A*6C
$GPGGA,210138.000,2623.9228,N,8007.2883,W,1,0,,,M,,M,,*53
$GPRMC,210138.000,A,2623.9228,N,8007.2883,W,36.87,,180414,,,A*63
$GPGGA,210139.000,2623.9123,N,8007.2883,W,1,0,,,M,,M,,*5A
$GPRMC,210139.000,A,2623.9123,N,8007.2883,W,37.03,,180414,,,A*67
$GPGGA,210140.000,2623.9017,N,8007.2886,W,1,0,,,M,,M,,*57
$GPRMC,210140.000,A,2623.9017,N,8007.2886,W,37.08,,180414,,,A*61
$GPGGA,210141.000,2623.8911,N,8007.2891,W,1,0,,,M,,M,,*5E
$GPRMC,210141.000,A,2623.8911,N,8007.2891,W,37.29,,180414,,,A*6B
$GPGGA,210142.000,2623.8807,N,8007.2897,W,1,0,,,M,,M,,*5D
$GPRMC,210142.000,A,2623.8807,N,8007.2897,W,37.31,,180414,,,A*61
$GPGGA,210143.000,2623.8704,N,8007.2901,W,1,0,,,M,,M,,*5E
$GPRMC,210143.000,A,2623.8704,N,8007.2901,W,37.25,,180414,,,A*67
$GPGGA,210144.000,2623.8608,N,8007.2899,W,1,0,,,M,,M,,*54
$GPRMC,210144.000,A,2623.8608,N,8007.2899,W,36.88,,180414,,,A*6B
$GPGGA,210145.000,2623.8504,N,8007.2898,W,1,0,,,M,,M,,*5B
$GPRMC,210145.000,A,2623.8504,N,8007.2898,W,36.88,,180414,,,A*64
$GPGGA,210146.000,2623.8403,N,8007.2893,W,1,0,,,M,,M,,*55
$GPRMC,210146.000,A,2623.8403,N,8007.2893,W,36.25,,180414,,,A*6D
$GPGGA,210147.000,2623.8304,N,8007.2887,W,1,0,,,M,,M,,*51
$GPRMC,210147.000,A,2623.8304,N,8007.2887,W,36.23,,180414,,,A*6F
$GPGGA,210148.000,2623.8205,N,8007.2881,W,1,0,,,M,,M,,*58
$GPRMC,210148.000,A,2623.8205,N,8007.2881,W,35.98,,180414,,,A*65
$GPGGA,210149.000,2623.8106,N,8007.2875,W,1,0,,,M,,M,,*52
$GPRMC,210149.000,A,2623.8106,N,8007.2875,W,34.99,,180414,,,A*6F
$GPGGA,210150.000,2623.8015,N,8007.2873,W,1,0,,,M,,M,,*5F
$GPRMC,210150.000,A,2623.8015,N,8007.2873,W,34.67,,180414,,,A*63
$GPGGA,210151.000,2623.7921,N,8007.2874,W,1,0,,,M,,M,,*58
$GPRMC,210151.000,A,2623.7921,N,8007.2874,W,34.42,,180414,,,A*63
$GPGGA,210152.000,2623.7834,N,8007.2867,W,1,0,,,M,,M,,*5C
$GPRMC,210152.000,A,2623.7834,N,8007.2867,W,33.27,,180414,,,A*63
$GPGGA,210153.000,2623.7759,N,8007.2864,W,1,0,,,M,,M,,*5A
$GPRMC,210153.000,A,2623.7759,N,8007.2864,W,32.05,,180414,,,A*64
$GPGGA,210154.000,2623.7678,N,8007.2859,W,1,0,,,M,,M,,*51
$GPRMC,210154.000,A,2623.7678,N,8007.2859,W,31.78,,180414,,,A*66
$GPGGA,210155.000,2623.7596,N,8007.2854,W,1,0,,,M,,M,,*5E
$GPRMC,210155.000,A,2623.7596,N,8007.2854,W,31.95,,180414,,,A*6A
$GPGGA,210156.000,2623.7510,N,8007.2851,W,1,0,,,M,,M,,*56
$GPRMC,210156.000,A,2623.7510,N,8007.2851,W,32.29,,180414,,,A*66
$GPGGA,210157.000,2623.7414,N,8007.2848,W,1,0,,,M,,M,,*5A
$GPRMC,210157.000,A,2623.7414,N,8007.2848,W,32.56,,180414,,,A*62
$GPGGA,210158.000,2623.7325,N,8007.2839,W,1,0,,,M,,M,,*56
$GPRMC,210158.000,A,2623.7325,N,8007.2839,W,32.63,,180414,,,A*68
$GPGGA,210159.000,2623.7235,N,8007.2829,W,1,0,,,M,,M,,*56
$GPRMC,210159.000,A,2623.7235,N,8007.2829,W,32.08,,180414,,,A*65
$GPGGA,210200.000,2623.7146,N,8007.2818,W,1,0,,,M,,M,,*5C
$GPRMC,210200.000,A,2623.7146,N,8007.2818,W,31.35,,180414,,,A*62
$GPGGA,210201.000,2623.7067,N,8007.2816,W,1,0,,,M,,M,,*51
$GPRMC,210201.000,A,2623.7067,N,8007.2816,W,29.54,,180414,,,A*61
$GPGGA,210202.000,2623.6995,N,8007.2813,W,1,0,,,M,,M,,*52
$GPRMC,210202.000,A,2623.6995,N,8007.2813,W,27.55,,180414,,,A*6D
$GPGGA,210203.000,2623.6924,N,8007.2813,W,1,0,,,M,,M,,*59
$GPRMC,210203.000,A,2623.6924,N,8007.2813,W,25.97,,180414,,,A*6A
$GPGGA,210204.000,2623.6870,N,8007.2803,W,1,0,,,M,,M,,*5F
$GPRMC,210204.000,A,2623.6870,N,8007.2803,W,23.89,,180414,,,A*65
$GPGGA,210205.000,2623.6821,N,8007.2795,W,1,0,,,M,,M,,*5A
$GPRMC,210205.000,A,2623.6821,N,8007.2795,W,22.00,,180414,,,A*60
$GPGGA,210206.000,2623.6775,N,8007.2791,W,1,0,,,M,,M,,*53
$GPRMC,210206.000,A,2623.6775,N,8007.2791,W,20.16,,180414,,,A*6C
$GPGGA,210207.000,2623.6735,N,8007.2782,W,1,0,,,M,,M,,*54
$GPRMC,210207.000,A,2623.6735,N,8007.2782,W,18.13,,180414,,,A*65
$GPGGA,210208.000,2623.6702,N,8007.2776,W,1,0,,,M,,M,,*54
$GPRMC,210208.000,A,2623.6702,N,8007.2776,W,16.08,,180414,,,A*61
$GPGGA,210209.000,2623.6675,N,8007.2771,W,1,0,,,M,,M,,*53
$GPRMC,210209.000,A,2623.6675,N,8007.2771,W,14.11,,180414,,,A*6C
$GPGGA,210210.000,2623.6673,N,8007.2765,W,1,0,,,M,,M,,*58
$GPRMC,210210.000,A,2623.6673,N,8007.2765,W,11.65,,180414,,,A*61
$GPGGA,210211.000,2623.6677,N,8007.2765,W,1,0,,,M,,M,,*5D
$GPRMC,210211.000,A,2623.6677,N,8007.2765,W,9.94,,180414,,,A*53
$GPGGA,210212.000,2623.6682,N,8007.2762,W,1,0,,,M,,M,,*53
$GPRMC,210212.000,A,2623.6682,N,8007.2762,W,8.56,,180414,,,A*52
$GPGGA,210213.000,2623.6683,N,8007.2759,W,1,0,,,M,,M,,*5B
$GPRMC,210213.000,A,2623.6683,N,8007.2759,W,6.75,,180414,,,A*55
$GPGGA,210214.000,2623.6706,N,8007.2751,W,1,0,,,M,,M,,*58
$GPRMC,210214.000,A,2623.6706,N,8007.2751,W,4.83,,180414,,,A*5D
$GPGGA,210215.000,2623.6728,N,8007.2745,W,1,0,,,M,,M,,*50
$GPRMC,210215.000,A,2623.6728,N,8007.2745,W,3.82,,180414,,,A*53
$GPGGA,210216.000,2623.6729,N,8007.2740,W,1,0,,,M,,M,,*57
$GPRMC,210216.000,A,2623.6729,N,8007.2740,W,3.34,,180414,,,A*59
$GPGGA,210217.000,2623.6730,N,8007.2737,W,1,0,,,M,,M,,*5E
$GPRMC,210217.000,A,2623.6730,N,8007.2737,W,3.28,,180414,,,A*5D
$GPGGA,210218.000,2623.6733,N,8007.2732,W,1,0,,,M,,M,,*57
$GPRMC,210218.000,A,2623.6733,N,8007.2732,W,3.34,,180414,,,A*59
$GPGGA,210219.000,2623.6733,N,8007.2729,W,1,0,,,M,,M,,*5C
$GPRMC,210219.000,A,2623.6733,N,8007.2729,W,3.01,,180414,,,A*54
$GPGGA,210220.000,2623.6732,N,8007.2727,W,1,0,,,M,,M,,*59
$GPRMC,210220.000,A,2623.6732,N,8007.2727,W,3.20,,180414,,,A*52
$GPGGA,210221.000,2623.6730,N,8007.2722,W,1,0,,,M,,M,,*5F
$GPRMC,210221.000,A,2623.6730,N,8007.2722,W,3.63,,180414,,,A*53
$GPGGA,210222.000,2623.6723,N,8007.2719,W,1,0,,,M,,M,,*56
$GPRMC,210222.000,A,2623.6723,N,8007.2719,W,4.32,,180414,,,A*59
$GPGGA,210223.000,2623.6712,N,8007.2717,W,1,0,,,M,,M,,*5B
$GPRMC,210223.000,A,2623.6712,N,8007.2717,W,5.24,,180414,,,A*52
$GPGGA,210224.000,2623.6703,N,8007.2719,W,1,0,,,M,,M,,*52
$GPRMC,210224.000,A,2623.6703,N,8007.2719,W,6.02,,180414,,,A*5C
$GPGGA,210225.000,2623.6690,N,8007.2723,W,1,0,,,M,,M,,*51
$GPRMC,210225.000,A,2623.6690,N,8007.2723,W,6.92,,180414,,,A*56
$GPGGA,210226.000,2623.6665,N,8007.2724,W,1,0,,,M,,M,,*5F
$GPRMC,210226.000,A,2623.6665,N,8007.2724,W,8.87,,180414,,,A*52
$GPGGA,210227.000,2623.6634,N,8007.2720,W,1,0,,,M,,M,,*5E
$GPRMC,210227.000,A,2623.6634,N,8007.2720,W,10.42,,180414,,,A*63
$GPGGA,210228.000,2623.6598,N,8007.2716,W,1,0,,,M,,M,,*51
$GPRMC,210228.000,A,2623.6598,N,8007.2716,W,12.11,,180414,,,A*68
$GPGGA,210229.000,2623.6558,N,8007.2717,W,1,0,,,M,,M,,*5D
$GPRMC,210229.000,A,2623.6558,N,8007.2717,W,13.46,,180414,,,A*67
$GPGGA,210230.000,2623.6515,N,8007.2711,W,1,0,,,M,,M,,*5A
$GPRMC,210230.000,A,2623.6515,N,8007.2711,W,14.88,,180414,,,A*65
$GPGGA,210231.000,2623.6463,N,8007.2709,W,1,0,,,M,,M,,*52
$GPRMC,210231.000,A,2623.6463,N,8007.2709,W,16.75,,180414,,,A*6D
$GPGGA,210232.000,2623.6401,N,8007.2706,W,1,0,,,M,,M,,*5A
$GPRMC,210232.000,A,2623.6401,N,8007.2706,W,18.87,,180414,,,A*66
$GPGGA,210233.000,2623.6330,N,8007.2696,W,1,0,,,M,,M,,*56
$GPRMC,210233.000,A,2623.6330,N,8007.2696,W,21.10,,180414,,,A*6E
$GPGGA,210234.000,2623.6252,N,8007.2691,W,1,0,,,M,,M,,*53
$GPRMC,210234.000,A,2623.6252,N,8007.2691,W,23.22,,180414,,,A*68
$GPGGA,210235.000,2623.6170,N,8007.2684,W,1,0,,,M,,M,,*55
$GPRMC,210235.000,A,2623.6170,N,8007.2684,W,25.20,,180414,,,A*6A
$GPGGA,210236.000,2623.6076,N,8007.2676,W,1,0,,,M,,M,,*5C
$GPRMC,210236.000,A,2623.6076,N,8007.2676,W,27.84,,180414,,,A*6F
$GPGGA,210237.000,2623.5977,N,8007.2671,W,1,0,,,M,,M,,*51
$GPRMC,210237.000,A,2623.5977,N,8007.2671,W,30.32,,180414,,,A*69
$GPGGA,210238.000,2623.5875,N,8007.2665,W,1,0,,,M,,M,,*58
$GPRMC,210238.000,A,2623.5875,N,8007.2665,W,32.20,,180414,,,A*61
$GPGGA,210239.000,2623.5771,N,8007.2660,W,1,0,,,M,,M,,*57
$GPRMC,210239.000,A,2623.5771,N,8007.2660,W,33.52,,180414,,,A*6A
$GPGGA,210240.000,2623.5667,N,8007.2651,W,1,0,,,M,,M,,*5D
$GPRMC,210240.000,A,2623.5667,N,8007.2651,W,34.49,,180414,,,A*6D
$GPGGA,210241.000,2623.5568,N,8007.2647,W,1,0,,,M,,M,,*57
$GPRMC,210241.000,A,2623.5568,N,8007.2647,W,35.18,,180414,,,A*62
$GPGGA,210242.000,2623.5459,N,8007.2640,W,1,0,,,M,,M,,*50
$GPRMC,210242.000,A,2623.5459,N,8007.2640,W,36.41,,180414,,,A*6A
$GPGGA,210243.000,2623.5355,N,8007.2635,W,1,0,,,M,,M,,*58
$GPRMC,210243.000,A,2623.5355,N,8007.2635,W,37.02,,180414,,,A*64
$GPGGA,210244.000,2623.5243,N,8007.2627,W,1,0,,,M,,M,,*5A
$GPRMC,210244.000,A,2623.5243,N,8007.2627,W,38.29,,180414,,,A*60
$GPGGA,210245.000,2623.5124,N,8007.2620,W,1,0,,,M,,M,,*5E
$GPRMC,210245.000,A,2623.5124,N,8007.2620,W,39.93,,180414,,,A*64
$GPGGA,210246.000,2623.5003,N,8007.2610,W,1,0,,,M,,M,,*5A
$GPRMC,210246.000,A,2623.5003,N,8007.2610,W,41.12,,180414,,,A*66
$GPGGA,210247.000,2623.4870,N,8007.2599,W,1,0,,,M,,M,,*54
$GPRMC,210247.000,A,2623.4870,N,8007.2599,W,42.29,,180414,,,A*63
$GPGGA,210248.000,2623.4727,N,8007.2587,W,1,0,,,M,,M,,*59
$GPRMC,210248.000,A,2623.4727,N,8007.2587,W,43.81,,180414,,,A*6D
$GPGGA,210249.000,2623.4583,N,8007.2580,W,1,0,,,M,,M,,*53
$GPRMC,210249.000,A,2623.4583,N,8007.2580,W,45.14,,180414,,,A*6D
$GPGGA,210250.000,2623.4444,N,8007.2573,W,1,0,,,M,,M,,*5D
$GPRMC,210250.000,A,2623.4444,N,8007.2573,W,45.98,,180414,,,A*67
$GPGGA,210251.000,2623.4309,N,8007.2564,W,1,0,,,M,,M,,*54
$GPRMC,210251.000,A,2623.4309,N,8007.2564,W,46.57,,180414,,,A*6E
$GPGGA,210252.000,2623.4178,N,8007.2555,W,1,0,,,M,,M,,*51
$GPRMC,210252.000,A,2623.4178,N,8007.2555,W,46.62,,180414,,,A*6D
$GPGGA,210253.000,2623.4047,N,8007.2551,W,1,0,,,M,,M,,*59
$GPRMC,210253.000,A,2623.4047,N,8007.2551,W,46.63,,180414,,,A*64
$GPGGA,210254.000,2623.3917,N,8007.2549,W,1,0,,,M,,M,,*5C
$GPRMC,210254.000,A,2623.3917,N,8007.2549,W,46.19,,180414,,,A*6C
$GPGGA,210255.000,2623.3790,N,8007.2545,W,1,0,,,M,,M,,*50
$GPRMC,210255.000,A,2623.3790,N,8007.2545,W,45.81,,180414,,,A*62
$GPGGA,210256.000,2623.3664,N,8007.2542,W,1,0,,,M,,M,,*5E
$GPRMC,210256.000,A,2623.3664,N,8007.2542,W,45.51,,180414,,,A*61
$GPGGA,210257.000,2623.3538,N,8007.2537,W,1,0,,,M,,M,,*57
$GPRMC,210257.000,A,2623.3538,N,8007.2537,W,45.33,,180414,,,A*6C
$GPGGA,210258.000,2623.3417,N,8007.2538,W,1,0,,,M,,M,,*5B
$GPRMC,210258.000,A,2623.3417,N,8007.2538,W,44.62,,180414,,,A*65
$GPGGA,210259.000,2623.3295,N,8007.2535,W,1,0,,,M,,M,,*5B
$GPRMC,210259.000,A,2623.3295,N,8007.2535,W,44.17,,180414,,,A*67
$GPGGA,210300.000,2623.3172,N,8007.2539,W,1,0,,,M,,M,,*50
$GPRMC,210300.000,A,2623.3172,N,8007.2539,W,44.17,,180414,,,A*6C
$GPGGA,210301.000,2623.3048,N,8007.2536,W,1,0,,,M,,M,,*56
$GPRMC,210301.000,A,2623.3048,N,8007.2536,W,44.22,,180414,,,A*6C
$GPGGA,210302.000,2623.2926,N,8007.2529,W,1,0,,,M,,M,,*5B
$GPRMC,210302.000,A,2623.2926,N,8007.2529,W,44.17,,180414,,,A*67
$GPGGA,210303.000,2623.2804,N,8007.2524,W,1,0,,,M,,M,,*56
$GPRMC,210303.000,A,2623.2804,N,8007.2524,W,44.21,,180414,,,A*6F
$GPGGA,210304.000,2623.2682,N,8007.2518,W,1,0,,,M,,M,,*5E
$GPRMC,210304.000,A,2623.2682,N,8007.2518,W,44.19,,180414,,,A*6C
$GPGGA,210305.000,2623.2558,N,8007.2509,W,1,0,,,M,,M,,*5B
$GPRMC,210305.000,A,2623.2558,N,8007.2509,W,44.35,,180414,,,A*67
$GPGGA,210306.000,2623.2430,N,8007.2509,W,1,0,,,M,,M,,*57
$GPRMC,210306.000,A,2623.2430,N,8007.2509,W,44.92,,180414,,,A*66
$GPGGA,210307.000,2623.2307,N,8007.2502,W,1,0,,,M,,M,,*5E
$GPRMC,210307.000,A,2623.2307,N,8007.2502,W,44.60,,180414,,,A*62
$GPGGA,210308.000,2623.2186,N,8007.2494,W,1,0,,,M,,M,,*54
$GPRMC,210308.000,A,2623.2186,N,8007.2494,W,44.31,,180414,,,A*6C
$GPGGA,210309.000,2623.2067,N,8007.2489,W,1,0,,,M,,M,,*57
$GPRMC,210309.000,A,2623.2067,N,8007.2489,W,43.62,,180414,,,A*6E
$GPGGA,210310.000,2623.1954,N,8007.2479,W,1,0,,,M,,M,,*5A
$GPRMC,210310.000,A,2623.1954,N,8007.2479,W,42.89,,180414,,,A*67
$GPGGA,210311.000,2623.1839,N,8007.2471,W,1,0,,,M,,M,,*59
$GPRMC,210311.000,A,2623.1839,N,8007.2471,W,42.68,,180414,,,A*6B
$GPGGA,210312.000,2623.1727,N,8007.2461,W,1,0,,,M,,M,,*5B
$GPRMC,210312.000,A,2623.1727,N,8007.2461,W,42.17,,180414,,,A*61
$GPGGA,210313.000,2623.1613,N,8007.2455,W,1,0,,,M,,M,,*5B
$GPRMC,210313.000,A,2623.1613,N,8007.2455,W,42.22,,180414,,,A*67
$GPGGA,210314.000,2623.1497,N,8007.2447,W,1,0,,,M,,M,,*51
$GPRMC,210314.000,A,2623.1497,N,8007.2447,W,42.65,,180414,,,A*6E
$GPGGA,210315.000,2623.1376,N,8007.2438,W,1,0,,,M,,M,,*50
$GPRMC,210315.000,A,2623.1376,N,8007.2438,W,43.11,,180414,,,A*6D
$GPGGA,210316.000,2623.1260,N,8007.2432,W,1,0,,,M,,M,,*5F
$GPRMC,210316.000,A,2623.1260,N,8007.2432,W,43.12,,180414,,,A*61
$GPGGA,210317.000,2623.1142,N,8007.2434,W,1,0,,,M,,M,,*5B
$GPRMC,210317.000,A,2623.1142,N,8007.2434,W,43.05,,180414,,,A*63
$GPGGA,210318.000,2623.1028,N,8007.2428,W,1,0,,,M,,M,,*54
$GPRMC,210318.000,A,2623.1028,N,8007.2428,W,42.41,,180414,,,A*6D
$GPGGA,210319.000,2623.0915,N,8007.2423,W,1,0,,,M,,M,,*58
$GPRMC,210319.000,A,2623.0915,N,8007.2423,W,42.06,,180414,,,A*62
$GPGGA,210320.000,2623.0804,N,8007.2422,W,1,0,,,M,,M,,*52
$GPRMC,210320.000,A,2623.0804,N,8007.2422,W,41.64,,180414,,,A*6F
$GPGGA,210321.000,2623.0696,N,8007.2423,W,1,0,,,M,,M,,*57
$GPRMC,210321.000,A,2623.0696,N,8007.2423,W,41.34,,180414,,,A*6F
$GPGGA,210322.000,2623.0585,N,8007.2427,W,1,0,,,M,,M,,*51
$GPRMC,210322.000,A,2623.0585,N,8007.2427,W,41.33,,180414,,,A*6E
$GPGGA,210323.000,2623.0474,N,8007.2425,W,1,0,,,M,,M,,*5D
$GPRMC,210323.000,A,2623.0474,N,8007.2425,W,41.31,,180414,,,A*60
$GPGGA,210324.000,2623.0363,N,8007.2422,W,1,0,,,M,,M,,*5C
$GPRMC,210324.000,A,2623.0363,N,8007.2422,W,41.29,,180414,,,A*68
$GPGGA,210325.000,2623.0249,N,8007.2418,W,1,0,,,M,,M,,*5D
$GPRMC,210325.000,A,2623.0249,N,8007.2418,W,41.78,,180414,,,A*6D
$GPGGA,210326.000,2623.0135,N,8007.2418,W,1,0,,,M,,M,,*56
$GPRMC,210326.000,A,2623.0135,N,8007.2418,W,41.82,,180414,,,A*63
$GPGGA,210327.000,2623.0024,N,8007.2412,W,1,0,,,M,,M,,*5C
$GPRMC,210327.000,A,2623.0024,N,8007.2412,W,41.74,,180414,,,A*60
$GPGGA,210328.000,2622.9916,N,8007.2406,W,1,0,,,M,,M,,*56
$GPRMC,210328.000,A,2622.9916,N,8007.2406,W,40.99,,180414,,,A*68
$GPGGA,210329.000,2622.9807,N,8007.2396,W,1,0,,,M,,M,,*58
$GPRMC,210329.000,A,2622.9807,N,8007.2396,W,40.71,,180414,,,A*60
$GPGGA,210330.000,2622.9700,N,8007.2387,W,1,0,,,M,,M,,*58
$GPRMC,210330.000,A,2622.9700,N,8007.2387,W,40.16,,180414,,,A*61
$GPGGA,210331.000,2622.9597,N,8007.2381,W,1,0,,,M,,M,,*53
$GPRMC,210331.000,A,2622.9597,N,8007.2381,W,39.42,,180414,,,A*65
$GPGGA,210332.000,2622.9497,N,8007.2377,W,1,0,,,M,,M,,*58
$GPRMC,210332.000,A,2622.9497,N,8007.2377,W,38.42,,180414,,,A*6F
$GPGGA,210333.000,2622.9397,N,8007.2375,W,1,0,,,M,,M,,*5C
$GPRMC,210333.000,A,2622.9397,N,8007.2375,W,37.86,,180414,,,A*6C
$GPGGA,210334.000,2622.9296,N,8007.2375,W,1,0,,,M,,M,,*5B
$GPRMC,210334.000,A,2622.9296,N,8007.2375,W,37.37,,180414,,,A*61
$GPGGA,210335.000,2622.9203,N,8007.2382,W,1,0,,,M,,M,,*5E
$GPRMC,210335.000,A,2622.9203,N,8007.2382,W,36.17,,180414,,,A*67
$GPGGA,210336.000,2622.9115,N,8007.2388,W,1,0,,,M,,M,,*53
$GPRMC,210336.000,A,2622.9115,N,8007.2388,W,34.86,,180414,,,A*60
$GPGGA,210337.000,2622.9034,N,8007.2392,W,1,0,,,M,,M,,*5B
$GPRMC,210337.000,A,2622.9034,N,8007.2392,W,33.33,,180414,,,A*61
$GPGGA,210338.000,2622.8959,N,8007.2402,W,1,0,,,M,,M,,*59
$GPRMC,210338.000,A,2622.8959,N,8007.2402,W,31.47,,180414,,,A*62
$GPGGA,210339.000,2622.8892,N,8007.2406,W,1,0,,,M,,M,,*5A
$GPRMC,210339.000,A,2622.8892,N,8007.2406,W,29.52,,180414,,,A*6C
$GPGGA,210340.000,2622.8831,N,8007.2411,W,1,0,,,M,,M,,*5B
$GPRMC,210340.000,A,2622.8831,N,8007.2411,W,27.92,,180414,,,A*6F
$GPGGA,210341.000,2622.8782,N,8007.2412,W,1,0,,,M,,M,,*5E
$GPRMC,210341.000,A,2622.8782,N,8007.2412,W,25.82,,180414,,,A*69
$GPGGA,210342.000,2622.8737,N,8007.2412,W,1,0,,,M,,M,,*53
$GPRMC,210342.000,A,2622.8737,N,8007.2412,W,24.70,,180414,,,A*68
$GPGGA,210343.000,2622.8709,N,8007.2410,W,1,0,,,M,,M,,*5D
$GPRMC,210343.000,A,2622.8709,N,8007.2410,W,22.85,,180414,,,A*6A
$GPGGA,210344.000,2622.8702,N,8007.2410,W,1,0,,,M,,M,,*51
$GPRMC,210344.000,A,2622.8702,N,8007.2410,W,19.42,,180414,,,A*65
$GPGGA,210345.000,2622.8703,N,8007.2411,W,1,0,,,M,,M,,*50
$GPRMC,210345.000,A,2622.8703,N,8007.2411,W,16.73,,180414,,,A*69
$GPGGA,210346.000,2622.8718,N,8007.2411,W,1,0,,,M,,M,,*59
$GPRMC,210346.000,A,2622.8718,N,8007.2411,W,13.23,,180414,,,A*60
$GPGGA,210347.000,2622.8731,N,8007.2413,W,1,0,,,M,,M,,*51
$GPRMC,210347.000,A,2622.8731,N,8007.2413,W,10.27,,180414,,,A*6F
$GPGGA,210348.000,2622.8740,N,8007.2417,W,1,0,,,M,,M,,*5C
$GPRMC,210348.000,A,2622.8740,N,8007.2417,W,8.19,,180414,,,A*56
$GPGGA,210349.000,2622.8751,N,8007.2419,W,1,0,,,M,,M,,*53
$GPRMC,210349.000,A,2622.8751,N,8007.2419,W,6.58,,180414,,,A*52
$GPGGA,210350.000,2622.8759,N,8007.2418,W,1,0,,,M,,M,,*52
$GPRMC,210350.000,A,2622.8759,N,8007.2418,W,5.47,,180414,,,A*5E
$GPGGA,210351.000,2622.8771,N,8007.2417,W,1,0,,,M,,M,,*56
$GPRMC,210351.000,A,2622.8771,N,8007.2417,W,4.30,,180414,,,A*5B
$GPGGA,210352.000,2622.8778,N,8007.2413,W,1,0,,,M,,M,,*58
$GPRMC,210352.000,A,2622.8778,N,8007.2413,W,3.64,,180414,,,A*53
$GPGGA,210353.000,2622.8790,N,8007.2409,W,1,0,,,M,,M,,*54
$GPRMC,210353.000,A,2622.8790,N,8007.2409,W,3.24,,180414,,,A*5B
$GPGGA,210354.000,2622.8803,N,8007.2400,W,1,0,,,M,,M,,*5F
$GPRMC,210354.000,A,2622.8803,N,8007.2400,W,3.43,,180414,,,A*51
$GPGGA,210355.000,2622.8809,N,8007.2400,W,1,0,,,M,,M,,*54
$GPRMC,210355.000,A,2622.8809,N,8007.2400,W,3.37,,180414,,,A*59
$GPGGA,210356.000,2622.8812,N,8007.2398,W,1,0,,,M,,M,,*5B
$GPRMC,210356.000,A,2622.8812,N,8007.2398,W,3.43,,180414,,,A*55
$GPGGA,210357.000,2622.8816,N,8007.2395,W,1,0,,,M,,M,,*53
$GPRMC,210357.000,A,2622.8816,N,8007.2395,W,3.46,,180414,,,A*58
$GPGGA,210358.000,2622.8817,N,8007.2391,W,1,0,,,M,,M,,*59
$GPRMC,210358.000,A,2622.8817,N,8007.2391,W,3.69,,180414,,,A*5F
$GPGGA,210359.000,2622.8819,N,8007.2387,W,1,0,,,M,,M,,*51
$GPRMC,210359.000,A,2622.8819,N,8007.2387,W,3.52,,180414,,,A*5F
$GPGGA,210400.000,2622.8824,N,8007.2384,W,1,0,,,M,,M,,*57
$GPRMC,210400.000,A,2622.8824,N,8007.2384,W,3.04,,180414,,,A*5A
$GPGGA,210401.000,2622.8824,N,8007.2383,W,1,0,,,M,,M,,*51
$GPRMC,210401.000,A,2622.8824,N,8007.2383,W,3.09,,180414,,,A*51
$GPGGA,210402.000,2622.8823,N,8007.2377,W,1,0,,,M,,M,,*5E
$GPRMC,210402.000,A,2622.8823,N,8007.2377,W,3.72,,180414,,,A*52
$GPGGA,210403.000,2622.8820,N,8007.2374,W,1,0,,,M,,M,,*5F
$GPRMC,210403.000,A,2622.8820,N,8007.2374,W,4.15,,180414,,,A*55
$GPGGA,210404.000,2622.8826,N,8007.2369,W,1,0,,,M,,M,,*52
$GPRMC,210404.000,A,2622.8826,N,8007.2369,W,3.68,,180414,,,A*55
$GPGGA,210405.000,2622.8831,N,8007.2364,W,1,0,,,M,,M,,*58
$GPRMC,210405.000,A,2622.8831,N,8007.2364,W,3.31,,180414,,,A*53
$GPGGA,210406.000,2622.8834,N,8007.2362,W,1,0,,,M,,M,,*58
$GPRMC,210406.000,A,2622.8834,N,8007.2362,W,3.04,,180414,,,A*55
$GPGGA,210407.000,2622.8839,N,8007.2357,W,1,0,,,M,,M,,*52
$GPRMC,210407.000,A,2622.8839,N,8007.2357,W,3.39,,180414,,,A*51
$GPGGA,210408.000,2622.8846,N,8007.2353,W,1,0,,,M,,M,,*51
$GPRMC,210408.000,A,2622.8846,N,8007.2353,W,3.33,,180414,,,A*58
$GPGGA,210409.000,2622.8850,N,8007.2352,W,1,0,,,M,,M,,*56
$GPRMC,210409.000,A,2622.8850,N,8007.2352,W,3.10,,180414,,,A*5E
$GPGGA,210410.000,2622.8849,N,8007.2347,W,1,0,,,M,,M,,*52
$GPRMC,210410.000,A,2622.8849,N,8007.2347,W,3.94,,180414,,,A*56
$GPGGA,210411.000,2622.8843,N,8007.2348,W,1,0,,,M,,M,,*56
$GPRMC,210411.000,A,2622.8843,N,8007.2348,W,4.65,,180414,,,A*5B
$GPGGA,210412.000,2622.8830,N,8007.2341,W,1,0,,,M,,M,,*58
$GPRMC,210412.000,A,2622.8830,N,8007.2341,W,6.07,,180414,,,A*53
$GPGGA,210413.000,2622.8807,N,8007.2336,W,1,0,,,M,,M,,*5D
$GPRMC,210413.000,A,2622.8807,N,8007.2336,W,8.05,,180414,,,A*5A
$GPGGA,210414.000,2622.8776,N,8007.2333,W,1,0,,,M,,M,,*56
$GPRMC,210414.000,A,2622.8776,N,8007.2333,W,10.04,,180414,,,A*69
$GPGGA,210415.000,2622.8738,N,8007.2331,W,1,0,,,M,,M,,*5F
$GPRMC,210415.000,A,2622.8738,N,8007.2331,W,11.94,,180414,,,A*68
$GPGGA,210416.000,2622.8696,N,8007.2326,W,1,0,,,M,,M,,*5F
$GPRMC,210416.000,A,2622.8696,N,8007.2326,W,13.80,,180414,,,A*6F
$GPGGA,210417.000,2622.8647,N,8007.2322,W,1,0,,,M,,M,,*56
$GPRMC,210417.000,A,2622.8647,N,8007.2322,W,15.33,,180414,,,A*68
$GPGGA,210418.000,2622.8589,N,8007.2326,W,1,0,,,M,,M,,*5C
$GPRMC,210418.000,A,2622.8589,N,8007.2326,W,17.41,,180414,,,A*65
$GPGGA,210419.000,2622.8518,N,8007.2332,W,1,0,,,M,,M,,*50
$GPRMC,210419.000,A,2622.8518,N,8007.2332,W,20.24,,180414,,,A*6E
$GPGGA,210420.000,2622.8448,N,8007.2323,W,1,0,,,M,,M,,*5E
$GPRMC,210420.000,A,2622.8448,N,8007.2323,W,22.20,,180414,,,A*66
$GPGGA,210421.000,2622.8374,N,8007.2315,W,1,0,,,M,,M,,*52
$GPRMC,210421.000,A,2622.8374,N,8007.2315,W,23.69,,180414,,,A*66
$GPGGA,210422.000,2622.8291,N,8007.2311,W,1,0,,,M,,M,,*5F
$GPRMC,210422.000,A,2622.8291,N,8007.2311,W,25.66,,180414,,,A*62
$GPGGA,210423.000,2622.8197,N,8007.2308,W,1,0,,,M,,M,,*53
$GPRMC,210423.000,A,2622.8197,N,8007.2308,W,28.03,,180414,,,A*60
$GPGGA,210424.000,2622.8094,N,8007.2303,W,1,0,,,M,,M,,*5D
$GPRMC,210424.000,A,2622.8094,N,8007.2303,W,30.48,,180414,,,A*68
$GPGGA,210425.000,2622.7976,N,8007.2296,W,1,0,,,M,,M,,*5B
$GPRMC,210425.000,A,2622.7976,N,8007.2296,W,34.48,,180414,,,A*6A
$GPGGA,210426.000,2622.7864,N,8007.2283,W,1,0,,,M,,M,,*5E
$GPRMC,210426.000,A,2622.7864,N,8007.2283,W,36.34,,180414,,,A*66
$GPGGA,210427.000,2622.7757,N,8007.2278,W,1,0,,,M,,M,,*54
$GPRMC,210427.000,A,2622.7757,N,8007.2278,W,37.30,,180414,,,A*69
$GPGGA,210428.000,2622.7650,N,8007.2273,W,1,0,,,M,,M,,*56
$GPRMC,210428.000,A,2622.7650,N,8007.2273,W,37.83,,180414,,,A*63
$GPGGA,210429.000,2622.7540,N,8007.2268,W,1,0,,,M,,M,,*5F
$GPRMC,210429.000,A,2622.7540,N,8007.2268,W,38.69,,180414,,,A*61
$GPGGA,210430.000,2622.7422,N,8007.2269,W,1,0,,,M,,M,,*53
$GPRMC,210430.000,A,2622.7422,N,8007.2269,W,40.19,,180414,,,A*65
$GPGGA,210431.000,2622.7304,N,8007.2267,W,1,0,,,M,,M,,*5F
$GPRMC,210431.000,A,2622.7304,N,8007.2267,W,41.28,,180414,,,A*6A
$GPGGA,210432.000,2622.7186,N,8007.2266,W,1,0,,,M,,M,,*55
$GPRMC,210432.000,A,2622.7186,N,8007.2266,W,42.01,,180414,,,A*68
$GPGGA,210433.000,2622.7072,N,8007.2265,W,1,0,,,M,,M,,*5D
$GPRMC,210433.000,A,2622.7072,N,8007.2265,W,41.95,,180414,,,A*6E
$GPGGA,210434.000,2622.6955,N,8007.2266,W,1,0,,,M,,M,,*54
$GPRMC,210434.000,A,2622.6955,N,8007.2266,W,42.13,,180414,,,A*6A
$GPGGA,210435.000,2622.6847,N,8007.2282,W,1,0,,,M,,M,,*5D
$GPRMC,210435.000,A,2622.6847,N,8007.2282,W,42.08,,180414,,,A*69
$GPGGA,210436.000,2622.6734,N,8007.2293,W,1,0,,,M,,M,,*55
$GPRMC,210436.000,A,2622.6734,N,8007.2293,W,42.73,,180414,,,A*6D
$GPGGA,210437.000,2622.6620,N,8007.2306,W,1,0,,,M,,M,,*5D
$GPRMC,210437.000,A,2622.6620,N,8007.2306,W,43.24,,180414,,,A*66
$GPGGA,210438.000,2622.6494,N,8007.2306,W,1,0,,,M,,M,,*5F
$GPRMC,210438.000,A,2622.6494,N,8007.2306,W,44.25,,180414,,,A*62
$GPGGA,210439.000,2622.6360,N,8007.2305,W,1,0,,,M,,M,,*51
$GPRMC,210439.000,A,2622.6360,N,8007.2305,W,45.59,,180414,,,A*66
$GPGGA,210440.000,2622.6222,N,8007.2300,W,1,0,,,M,,M,,*5D
$GPRMC,210440.000,A,2622.6222,N,8007.2300,W,47.06,,180414,,,A*62
$GPGGA,210441.000,2622.6078,N,8007.2290,W,1,0,,,M,,M,,*59
$GPRMC,210441.000,A,2622.6078,N,8007.2290,W,48.52,,180414,,,A*68
$GPGGA,210442.000,2622.5924,N,8007.2285,W,1,0,,,M,,M,,*5D
$GPRMC,210442.000,A,2622.5924,N,8007.2285,W,50.60,,180414,,,A*64
$GPGGA,210443.000,2622.5772,N,8007.2280,W,1,0,,,M,,M,,*54
$GPRMC,210443.000,A,2622.5772,N,8007.2280,W,51.86,,180414,,,A*64
$GPGGA,210444.000,2622.5623,N,8007.2274,W,1,0,,,M,,M,,*5D
$GPRMC,210444.000,A,2622.5623,N,8007.2274,W,52.11,,180414,,,A*60
$GPGGA,210445.000,2622.5473,N,8007.2274,W,1,0,,,M,,M,,*5B
$GPRMC,210445.000,A,2622.5473,N,8007.2274,W,52.39,,180414,,,A*6C
$GPGGA,210446.000,2622.5323,N,8007.2273,W,1,0,,,M,,M,,*5D
$GPRMC,210446.000,A,2622.5323,N,8007.2273,W,52.37,,180414,,,A*64
$GPGGA,210447.000,2622.5178,N,8007.2267,W,1,0,,,M,,M,,*55
$GPRMC,210447.000,A,2622.5178,N,8007.2267,W,51.72,,180414,,,A*6E
$GPGGA,210448.000,2622.5034,N,8007.2264,W,1,0,,,M,,M,,*50
$GPRMC,210448.000,A,2622.5034,N,8007.2264,W,51.21,,180414,,,A*6D
$GPGGA,210449.000,2622.4888,N,8007.2263,W,1,0,,,M,,M,,*58
$GPRMC,210449.000,A,2622.4888,N,8007.2263,W,51.44,,180414,,,A*66
$GPGGA,210450.000,2622.4745,N,8007.2257,W,1,0,,,M,,M,,*59
$GPRMC,210450.000,A,2622.4745,N,8007.2257,W,51.22,,180414,,,A*67
$GPGGA,210451.000,2622.4603,N,8007.2254,W,1,0,,,M,,M,,*58
$GPRMC,210451.000,A,2622.4603,N,8007.2254,W,50.90,,180414,,,A*6E
$GPGGA,210452.000,2622.4462,N,8007.2249,W,1,0,,,M,,M,,*52
$GPRMC,210452.000,A,2622.4462,N,8007.2249,W,50.08,,180414,,,A*65
$GPGGA,210453.000,2622.4318,N,8007.2245,W,1,0,,,M,,M,,*55
$GPRMC,210453.000,A,2622.4318,N,8007.2245,W,50.35,,180414,,,A*6C
$GPGGA,210454.000,2622.4182,N,8007.2241,W,1,0,,,M,,M,,*57
$GPRMC,210454.000,A,2622.4182,N,8007.2241,W,49.74,,180414,,,A*63
$GPGGA,210455.000,2622.4047,N,8007.2238,W,1,0,,,M,,M,,*50
$GPRMC,210455.000,A,2622.4047,N,8007.2238,W,49.15,,180414,,,A*63
$GPGGA,210456.000,2622.3917,N,8007.2235,W,1,0,,,M,,M,,*55
$GPRMC,210456.000,A,2622.3917,N,8007.2235,W,48.20,,180414,,,A*61
$GPGGA,210457.000,2622.3792,N,8007.2234,W,1,0,,,M,,M,,*56
$GPRMC,210457.000,A,2622.3792,N,8007.2234,W,47.12,,180414,,,A*6C
$GPGGA,210458.000,2622.3682,N,8007.2234,W,1,0,,,M,,M,,*59
$GPRMC,210458.000,A,2622.3682,N,8007.2234,W,44.99,,180414,,,A*63
$GPGGA,210500.000,2622.3481,N,8007.2218,W,1,0,,,M,,M,,*5A
$GPRMC,210500.000,A,2622.3481,N,8007.2218,W,40.64,,180414,,,A*66
$GPGGA,210501.000,2622.3393,N,8007.2214,W,1,0,,,M,,M,,*53
$GPRMC,210501.000,A,2622.3393,N,8007.2214,W,38.47,,180414,,,A*61
$GPGGA,210502.000,2622.3316,N,8007.2210,W,1,0,,,M,,M,,*59
$GPRMC,210502.000,A,2622.3316,N,8007.2210,W,36.34,,180414,,,A*61
$GPGGA,210503.000,2622.3241,N,8007.2212,W,1,0,,,M,,M,,*59
$GPRMC,210503.000,A,2622.3241,N,8007.2212,W,35.13,,180414,,,A*67
$GPGGA,210505.000,2622.3138,N,8007.2219,W,1,0,,,M,,M,,*59
$GPRMC,210505.000,A,2622.3138,N,8007.2219,W,30.68,,180414,,,A*6E
$GPGGA,210506.000,2622.3103,N,8007.2224,W,1,0,,,M,,M,,*5C
$GPRMC,210506.000,A,2622.3103,N,8007.2224,W,28.03,,180414,,,A*6F
$GPGGA,210507.000,2622.3078,N,8007.2228,W,1,0,,,M,,M,,*5C
$GPRMC,210507.000,A,2622.3078,N,8007.2228,W,24.89,,180414,,,A*61
$GPGGA,210508.000,2622.3068,N,8007.2231,W,1,0,,,M,,M,,*5A
$GPRMC,210508.000,A,2622.3068,N,8007.2231,W,22.19,,180414,,,A*68
$GPGGA,210509.000,2622.3068,N,8007.2233,W,1,0,,,M,,M,,*59
$GPRMC,210509.000,A,2622.3068,N,8007.2233,W,19.44,,180414,,,A*6B
$GPGGA,210511.000,2622.3082,N,8007.2241,W,1,0,,,M,,M,,*51
$GPRMC,210511.000,A,2622.3082,N,8007.2241,W,14.49,,180414,,,A*63
$GPGGA,210513.000,2622.3160,N,8007.2248,W,1,0,,,M,,M,,*57
$GPRMC,210513.000,A,2622.3160,N,8007.2248,W,6.78,,180414,,,A*54
$GPGGA,210514.000,2622.3199,N,8007.2249,W,1,0,,,M,,M,,*57
$GPRMC,210514.000,A,2622.3199,N,8007.2249,W,5.46,,180414,,,A*5A
$GPGGA,210516.000,2622.3255,N,8007.2252,W,1,0,,,M,,M,,*5C
$GPRMC,210516.000,A,2622.3255,N,8007.2252,W,4.45,,180414,,,A*53
$GPGGA,210517.000,2622.3286,N,8007.2255,W,1,0,,,M,,M,,*54
$GPRMC,210517.000,A,2622.3286,N,8007.2255,W,3.82,,180414,,,A*57
$GPGGA,210518.000,2622.3309,N,8007.2256,W,1,0,,,M,,M,,*5E
$GPRMC,210518.000,A,2622.3309,N,8007.2256,W,3.87,,180414,,,A*58
$GPGGA,210520.000,2622.3342,N,8007.2258,W,1,0,,,M,,M,,*54
$GPRMC,210520.000,A,2622.3342,N,8007.2258,W,3.70,,180414,,,A*5A
$GPGGA,210521.000,2622.3353,N,8007.2257,W,1,0,,,M,,M,,*5A
$GPRMC,210521.000,A,2622.3353,N,8007.2257,W,3.95,,180414,,,A*5F
$GPGGA,210522.000,2622.3363,N,8007.2257,W,1,0,,,M,,M,,*5A
$GPRMC,210522.000,A,2622.3363,N,8007.2257,W,3.95,,180414,,,A*5F
$GPGGA,210523.000,2622.3373,N,8007.2258,W,1,0,,,M,,M,,*55
$GPRMC,210523.000,A,2622.3373,N,8007.2258,W,3.80,,180414,,,A*54
$GPGGA,210524.000,2622.3383,N,8007.2259,W,1,0,,,M,,M,,*5C
$GPRMC,210524.000,A,2622.3383,N,8007.2259,W,3.61,,180414,,,A*52
$GPGGA,210525.000,2622.3390,N,8007.2260,W,1,0,,,M,,M,,*55
$GPRMC,210525.000,A,2622.3390,N,8007.2260,W,3.56,,180414,,,A*5F
$GPGGA,210526.000,2622.3400,N,8007.2262,W,1,0,,,M,,M,,*5A
$GPRMC,210526.000,A,2622.3400,N,8007.2262,W,3.54,,180414,,,A*52
$GPGGA,210527.000,2622.3406,N,8007.2255,W,1,0,,,M,,M,,*59
$GPRMC,210527.000,A,2622.3406,N,8007.2255,W,3.72,,180414,,,A*55
$GPGGA,210528.000,2622.3410,N,8007.2251,W,1,0,,,M,,M,,*55
$GPRMC,210528.000,A,2622.3410,N,8007.2251,W,3.66,,180414,,,A*5C
$GPGGA,210529.000,2622.3412,N,8007.2238,W,1,0,,,M,,M,,*59
$GPRMC,210529.000,A,2622.3412,N,8007.2238,W,4.48,,180414,,,A*5B
$GPGGA,210530.000,2622.3413,N,8007.2232,W,1,0,,,M,,M,,*5A
$GPRMC,210530.000,A,2622.3413,N,8007.2232,W,4.44,,180414,,,A*54
$GPGGA,210531.000,2622.3418,N,8007.2226,W,1,0,,,M,,M,,*55
$GPRMC,210531.000,A,2622.3418,N,8007.2226,W,4.43,,180414,,,A*5C
$GPGGA,210532.000,2622.3421,N,8007.2221,W,1,0,,,M,,M,,*5B
$GPRMC,210532.000,A,2622.3421,N,8007.2221,W,4.43,,180414,,,A*52
$GPGGA,210533.000,2622.3424,N,8007.2218,W,1,0,,,M,,M,,*55
$GPRMC,210533.000,A,2622.3424,N,8007.2218,W,4.02,,180414,,,A*59
$GPGGA,210534.000,2622.3425,N,8007.2217,W,1,0,,,M,,M,,*5C
$GPRMC,210534.000,A,2622.3425,N,8007.2217,W,3.97,,180414,,,A*5B
$GPGGA,210535.000,2622.3427,N,8007.2215,W,1,0,,,M,,M,,*5D
$GPRMC,210535.000,A,2622.3427,N,8007.2215,W,3.91,,180414,,,A*5C
$GPGGA,210536.000,2622.3428,N,8007.2216,W,1,0,,,M,,M,,*52
$GPRMC,210536.000,A,2622.3428,N,8007.2216,W,3.90,,180414,,,A*52
$GPGGA,210537.000,2622.3430,N,8007.2212,W,1,0,,,M,,M,,*5E
$GPRMC,210537.000,A,2622.3430,N,8007.2212,W,4.36,,180414,,,A*55
$GPGGA,210538.000,2622.3431,N,8007.2201,W,1,0,,,M,,M,,*52
$GPRMC,210538.000,A,2622.3431,N,8007.2201,W,4.42,,180414,,,A*5A
$GPGGA,210539.000,2622.3432,N,8007.2195,W,1,0,,,M,,M,,*5E
$GPRMC,210539.000,A,2622.3432,N,8007.2195,W,4.38,,180414,,,A*5B
$GPGGA,210540.000,2622.3431,N,8007.2188,W,1,0,,,M,,M,,*5F
$GPRMC,210540.000,A,2622.3431,N,8007.2188,W,4.57,,180414,,,A*53
$GPGGA,210541.000,2622.3434,N,8007.2195,W,1,0,,,M,,M,,*57
$GPRMC,210541.000,A,2622.3434,N,8007.2195,W,4.16,,180414,,,A*5E
$GPGGA,210542.000,2622.3437,N,8007.2193,W,1,0,,,M,,M,,*51
$GPRMC,210542.000,A,2622.3437,N,8007.2193,W,4.22,,180414,,,A*5F
$GPGGA,210543.000,2622.3438,N,8007.2195,W,1,0,,,M,,M,,*59
$GPRMC,210543.000,A,2622.3438,N,8007.2195,W,4.26,,180414,,,A*53
$GPGGA,210544.000,2622.3433,N,8007.2197,W,1,0,,,M,,M,,*57
$GPRMC,210544.000,A,2622.3433,N,8007.2197,W,4.75,,180414,,,A*5B
$GPGGA,210545.000,2622.3424,N,8007.2203,W,1,0,,,M,,M,,*5E
$GPRMC,210545.000,A,2622.3424,N,8007.2203,W,4.96,,180414,,,A*5F
$GPGGA,210546.000,2622.3405,N,8007.2196,W,1,0,,,M,,M,,*51
$GPRMC,210546.000,A,2622.3405,N,8007.2196,W,6.68,,180414,,,A*53
$GPGGA,210547.000,2622.3384,N,8007.2188,W,1,0,,,M,,M,,*51
$GPRMC,210547.000,A,2622.3384,N,8007.2188,W,7.72,,180414,,,A*59
$GPGGA,210548.000,2622.3356,N,8007.2184,W,1,0,,,M,,M,,*5D
$GPRMC,210548.000,A,2622.3356,N,8007.2184,W,8.87,,180414,,,A*50
$GPGGA,210549.000,2622.3314,N,8007.2177,W,1,0,,,M,,M,,*56
$GPRMC,210549.000,A,2622.3314,N,8007.2177,W,10.80,,180414,,,A*65
$GPGGA,210550.000,2622.3257,N,8007.2171,W,1,0,,,M,,M,,*5E
$GPRMC,210550.000,A,2622.3257,N,8007.2171,W,13.37,,180414,,,A*62
$GPGGA,210551.000,2622.3180,N,8007.2169,W,1,0,,,M,,M,,*5F
$GPRMC,210551.000,A,2622.3180,N,8007.2169,W,16.67,,180414,,,A*63
$GPGGA,210552.000,2622.3092,N,8007.2168,W,1,0,,,M,,M,,*5F
$GPRMC,210552.000,A,2622.3092,N,8007.2168,W,19.82,,180414,,,A*67
$GPGGA,210553.000,2622.2988,N,8007.2177,W,1,0,,,M,,M,,*53
$GPRMC,210553.000,A,2622.2988,N,8007.2177,W,23.36,,180414,,,A*6D
$GPGGA,210554.000,2622.2867,N,8007.2179,W,1,0,,,M,,M,,*5A
$GPRMC,210554.000,A,2622.2867,N,8007.2179,W,27.46,,180414,,,A*67
$GPGGA,210555.000,2622.2741,N,8007.2175,W,1,0,,,M,,M,,*5C
$GPRMC,210555.000,A,2622.2741,N,8007.2175,W,30.82,,180414,,,A*6F
$GPGGA,210556.000,2622.2608,N,8007.2164,W,1,0,,,M,,M,,*53
$GPRMC,210556.000,A,2622.2608,N,8007.2164,W,33.94,,180414,,,A*64
$GPGGA,210557.000,2622.2469,N,8007.2154,W,1,0,,,M,,M,,*54
$GPRMC,210557.000,A,2622.2469,N,8007.2154,W,36.88,,180414,,,A*6B
$GPGGA,210558.000,2622.2316,N,8007.2149,W,1,0,,,M,,M,,*58
$GPRMC,210558.000,A,2622.2316,N,8007.2149,W,40.73,,180414,,,A*62
$GPGGA,210559.000,2622.2150,N,8007.2144,W,1,0,,,M,,M,,*54
$GPRMC,210559.000,A,2622.2150,N,8007.2144,W,45.35,,180414,,,A*69
$GPGGA,210600.000,2622.2000,N,8007.2133,W,1,0,,,M,,M,,*5F
$GPRMC,210600.000,A,2622.2000,N,8007.2133,W,47.06,,180414,,,A*60
$GPGGA,210601.000,2622.1855,N,8007.2124,W,1,0,,,M,,M,,*53
$GPRMC,210601.000,A,2622.1855,N,8007.2124,W,48.06,,180414,,,A*63
$GPGGA,210602.000,2622.1714,N,8007.2116,W,1,0,,,M,,M,,*5B
$GPRMC,210602.000,A,2622.1714,N,8007.2116,W,48.52,,180414,,,A*6A
$GPGGA,210603.000,2622.1579,N,8007.2106,W,1,0,,,M,,M,,*52
$GPRMC,210603.000,A,2622.1579,N,8007.2106,W,47.83,,180414,,,A*60
$GPGGA,210604.000,2622.1447,N,8007.2101,W,1,0,,,M,,M,,*5E
$GPRMC,210604.000,A,2622.1447,N,8007.2101,W,47.78,,180414,,,A*68
$GPGGA,210605.000,2622.1317,N,8007.2097,W,1,0,,,M,,M,,*53
$GPRMC,210605.000,A,2622.1317,N,8007.2097,W,47.47,,180414,,,A*69
$GPGGA,210606.000,2622.1181,N,8007.2094,W,1,0,,,M,,M,,*5E
$GPRMC,210606.000,A,2622.1181,N,8007.2094,W,47.45,,180414,,,A*66
$GPGGA,210607.000,2622.1055,N,8007.2083,W,1,0,,,M,,M,,*51
$GPRMC,210607.000,A,2622.1055,N,8007.2083,W,47.24,,180414,,,A*6E
$GPGGA,210608.000,2622.0926,N,8007.2071,W,1,0,,,M,,M,,*5F
$GPRMC,210608.000,A,2622.0926,N,8007.2071,W,47.17,,180414,,,A*60
$GPGGA,210609.000,2622.0794,N,8007.2059,W,1,0,,,M,,M,,*53
$GPRMC,210609.000,A,2622.0794,N,8007.2059,W,47.15,,180414,,,A*6E
$GPGGA,210610.000,2622.0658,N,8007.2048,W,1,0,,,M,,M,,*5A
$GPRMC,210610.000,A,2622.0658,N,8007.2048,W,47.41,,180414,,,A*66
$GPGGA,210611.000,2622.0522,N,8007.2040,W,1,0,,,M,,M,,*5D
$GPRMC,210611.000,A,2622.0522,N,8007.2040,W,47.94,,180414,,,A*69
$GPGGA,210612.000,2622.0394,N,8007.2045,W,1,0,,,M,,M,,*50
$GPRMC,210612.000,A,2622.0394,N,8007.2045,W,47.22,,180414,,,A*69
$GPGGA,210613.000,2622.0253,N,8007.2061,W,1,0,,,M,,M,,*5D
$GPRMC,210613.000,A,2622.0253,N,8007.2061,W,48.44,,180414,,,A*6B
$GPGGA,210614.000,2622.0115,N,8007.2083,W,1,0,,,M,,M,,*57
$GPRMC,210614.000,A,2622.0115,N,8007.2083,W,48.50,,180414,,,A*64
$GPGGA,210615.000,2621.9983,N,8007.2118,W,1,0,,,M,,M,,*58
$GPRMC,210615.000,A,2621.9983,N,8007.2118,W,48.71,,180414,,,A*68
$GPGGA,210616.000,2621.9854,N,8007.2151,W,1,0,,,M,,M,,*5D
$GPRMC,210616.000,A,2621.9854,N,8007.2151,W,49.06,,180414,,,A*6C
$GPGGA,210617.000,2621.9732,N,8007.2190,W,1,0,,,M,,M,,*5E
$GPRMC,210617.000,A,2621.9732,N,8007.2190,W,48.99,,180414,,,A*68
$GPGGA,210618.000,2621.9621,N,8007.2232,W,1,0,,,M,,M,,*59
$GPRMC,210618.000,A,2621.9621,N,8007.2232,W,48.09,,180414,,,A*66
$GPGGA,210619.000,2621.9514,N,8007.2275,W,1,0,,,M,,M,,*5E
$GPRMC,210619.000,A,2621.9514,N,8007.2275,W,46.98,,180414,,,A*67
$GPGGA,210620.000,2621.9408,N,8007.2321,W,1,0,,,M,,M,,*58
$GPRMC,210620.000,A,2621.9408,N,8007.2321,W,46.32,,180414,,,A*61
$GPGGA,210621.000,2621.9305,N,8007.2383,W,1,0,,,M,,M,,*5B
$GPRMC,210621.000,A,2621.9305,N,8007.2383,W,46.26,,180414,,,A*67
$GPGGA,210622.000,2621.9204,N,8007.2441,W,1,0,,,M,,M,,*51
$GPRMC,210622.000,A,2621.9204,N,8007.2441,W,45.63,,180414,,,A*6F
$GPGGA,210623.000,2621.9100,N,8007.2507,W,1,0,,,M,,M,,*54
$GPRMC,210623.000,A,2621.9100,N,8007.2507,W,45.47,,180414,,,A*6C
$GPGGA,210624.000,2621.8999,N,8007.2570,W,1,0,,,M,,M,,*5A
$GPRMC,210624.000,A,2621.8999,N,8007.2570,W,44.84,,180414,,,A*6C
$GPGGA,210625.000,2621.8905,N,8007.2634,W,1,0,,,M,,M,,*5D
$GPRMC,210625.000,A,2621.8905,N,8007.2634,W,43.42,,180414,,,A*66
$GPGGA,210626.000,2621.8810,N,8007.2705,W,1,0,,,M,,M,,*58
$GPRMC,210626.000,A,2621.8810,N,8007.2705,W,42.44,,180414,,,A*64
$GPGGA,210627.000,2621.8721,N,8007.2778,W,1,0,,,M,,M,,*5E
$GPRMC,210627.000,A,2621.8721,N,8007.2778,W,41.20,,180414,,,A*63
$GPGGA,210628.000,2621.8633,N,8007.2852,W,1,0,,,M,,M,,*54
$GPRMC,210628.000,A,2621.8633,N,8007.2852,W,40.51,,180414,,,A*6E
$GPGGA,210629.000,2621.8548,N,8007.2928,W,1,0,,,M,,M,,*56
$GPRMC,210629.000,A,2621.8548,N,8007.2928,W,39.74,,180414,,,A*65
$GPGGA,210630.000,2621.8464,N,8007.2995,W,1,0,,,M,,M,,*57
$GPRMC,210630.000,A,2621.8464,N,8007.2995,W,39.00,,180414,,,A*67
$GPGGA,210631.000,2621.8386,N,8007.3063,W,1,0,,,M,,M,,*5C
$GPRMC,210631.000,A,2621.8386,N,8007.3063,W,38.15,,180414,,,A*69
$GPGGA,210632.000,2621.8317,N,8007.3138,W,1,0,,,M,,M,,*58
$GPRMC,210632.000,A,2621.8317,N,8007.3138,W,36.74,,180414,,,A*64
$GPGGA,210633.000,2621.8241,N,8007.3207,W,1,0,,,M,,M,,*54
$GPRMC,210633.000,A,2621.8241,N,8007.3207,W,36.27,,180414,,,A*6E
$GPGGA,210634.000,2621.8166,N,8007.3291,W,1,0,,,M,,M,,*5A
$GPRMC,210634.000,A,2621.8166,N,8007.3291,W,36.03,,180414,,,A*66
$GPGGA,210635.000,2621.8100,N,8007.3383,W,1,0,,,M,,M,,*59
$GPRMC,210635.000,A,2621.8100,N,8007.3383,W,35.86,,180414,,,A*6B
$GPGGA,210636.000,2621.8038,N,8007.3484,W,1,0,,,M,,M,,*50
$GPRMC,210636.000,A,2621.8038,N,8007.3484,W,36.07,,180414,,,A*68
$GPGGA,210637.000,2621.7973,N,8007.3573,W,1,0,,,M,,M,,*51
$GPRMC,210637.000,A,2621.7973,N,8007.3573,W,36.09,,180414,,,A*67
$GPGGA,210638.000,2621.7905,N,8007.3682,W,1,0,,,M,,M,,*52
$GPRMC,210638.000,A,2621.7905,N,8007.3682,W,36.86,,180414,,,A*63
$GPGGA,210639.000,2621.7848,N,8007.3834,W,1,0,,,M,,M,,*58
$GPRMC,210639.000,A,2621.7848,N,8007.3834,W,38.37,,180414,,,A*6D
$GPGGA,210640.000,2621.7904,N,8007.4235,W,1,0,,,M,,M,,*53
$GPRMC,210640.000,A,2621.7904,N,8007.4235,W,38.84,,180414,,,A*6E
$GPGGA,210641.000,2621.7895,N,8007.4470,W,1,0,,,M,,M,,*5C
$GPRMC,210641.000,A,2621.7895,N,8007.4470,W,38.81,,180414,,,A*64
$GPGGA,210642.000,2621.7838,N,8007.4580,W,1,0,,,M,,M,,*56
$GPRMC,210642.000,A,2621.7838,N,8007.4580,W,38.12,,180414,,,A*64
$GPGGA,210643.000,2621.7784,N,8007.4686,W,1,0,,,M,,M,,*5A
$GPRMC,210643.000,A,2621.7784,N,8007.4686,W,37.32,,180414,,,A*65
$GPGGA,210644.000,2621.7759,N,8007.4840,W,1,0,,,M,,M,,*59
$GPRMC,210644.000,A,2621.7759,N,8007.4840,W,35.95,,180414,,,A*69
$GPGGA,210645.000,2621.7724,N,8007.4949,W,1,0,,,M,,M,,*5A
$GPRMC,210645.000,A,2621.7724,N,8007.4949,W,34.14,,180414,,,A*62
$GPGGA,210646.000,2621.7691,N,8007.5025,W,1,0,,,M,,M,,*54
$GPRMC,210646.000,A,2621.7691,N,8007.5025,W,31.04,,180414,,,A*68
$GPGGA,210647.000,2621.7659,N,8007.5097,W,1,0,,,M,,M,,*58
$GPRMC,210647.000,A,2621.7659,N,8007.5097,W,28.91,,180414,,,A*60
$GPGGA,210648.000,2621.7643,N,8007.5173,W,1,0,,,M,,M,,*57
$GPRMC,210648.000,A,2621.7643,N,8007.5173,W,25.85,,180414,,,A*67
$GPGGA,210649.000,2621.7627,N,8007.5241,W,1,0,,,M,,M,,*56
$GPRMC,210649.000,A,2621.7627,N,8007.5241,W,23.58,,180414,,,A*60
$GPGGA,210650.000,2621.7613,N,8007.5296,W,1,0,,,M,,M,,*53
$GPRMC,210650.000,A,2621.7613,N,8007.5296,W,21.42,,180414,,,A*6C
$GPGGA,210651.000,2621.7603,N,8007.5340,W,1,0,,,M,,M,,*59
$GPRMC,210651.000,A,2621.7603,N,8007.5340,W,19.34,,180414,,,A*6C
$GPGGA,210652.000,2621.7593,N,8007.5378,W,1,0,,,M,,M,,*5B
$GPRMC,210652.000,A,2621.7593,N,8007.5378,W,18.02,,180414,,,A*6A
$GPGGA,210653.000,2621.7579,N,8007.5419,W,1,0,,,M,,M,,*5E
$GPRMC,210653.000,A,2621.7579,N,8007.5419,W,17.49,,180414,,,A*6F
$GPGGA,210654.000,2621.7566,N,8007.5455,W,1,0,,,M,,M,,*5F
$GPRMC,210654.000,A,2621.7566,N,8007.5455,W,16.81,,180414,,,A*6B
$GPGGA,210655.000,2621.7577,N,8007.5451,W,1,0,,,M,,M,,*5A
$GPRMC,210655.000,A,2621.7577,N,8007.5451,W,15.71,,180414,,,A*62
$GPGGA,210656.000,2621.7595,N,8007.5433,W,1,0,,,M,,M,,*51
$GPRMC,210656.000,A,2621.7595,N,8007.5433,W,14.60,,180414,,,A*68
$GPGGA,210657.000,2621.7612,N,8007.5416,W,1,0,,,M,,M,,*5B
$GPRMC,210657.000,A,2621.7612,N,8007.5416,W,13.55,,180414,,,A*63
$GPGGA,210658.000,2621.7625,N,8007.5407,W,1,0,,,M,,M,,*50
$GPRMC,210658.000,A,2621.7625,N,8007.5407,W,12.79,,180414,,,A*67
$GPGGA,210659.000,2621.7636,N,8007.5402,W,1,0,,,M,,M,,*56
$GPRMC,210659.000,A,2621.7636,N,8007.5402,W,12.14,,180414,,,A*6A
$GPGGA,210700.000,2621.7645,N,8007.5393,W,1,0,,,M,,M,,*50
$GPRMC,210700.000,A,2621.7645,N,8007.5393,W,11.28,,180414,,,A*60
$GPGGA,210701.000,2621.7652,N,8007.5388,W,1,0,,,M,,M,,*5D
$GPRMC,210701.000,A,2621.7652,N,8007.5388,W,10.70,,180414,,,A*61
$GPGGA,210702.000,2621.7664,N,8007.5372,W,1,0,,,M,,M,,*5E
$GPRMC,210702.000,A,2621.7664,N,8007.5372,W,9.91,,180414,,,A*55
$GPGGA,210703.000,2621.7678,N,8007.5358,W,1,0,,,M,,M,,*5A
$GPRMC,210703.000,A,2621.7678,N,8007.5358,W,8.89,,180414,,,A*59
$GPGGA,210704.000,2621.7687,N,8007.5346,W,1,0,,,M,,M,,*52
$GPRMC,210704.000,A,2621.7687,N,8007.5346,W,7.85,,180414,,,A*52
$GPGGA,210705.000,2621.7697,N,8007.5338,W,1,0,,,M,,M,,*5B
$GPRMC,210705.000,A,2621.7697,N,8007.5338,W,7.57,,180414,,,A*54
$GPGGA,210706.000,2621.7705,N,8007.5338,W,1,0,,,M,,M,,*52
$GPRMC,210706.000,A,2621.7705,N,8007.5338,W,7.57,,180414,,,A*5D
$GPGGA,210707.000,2621.7712,N,8007.5335,W,1,0,,,M,,M,,*58
$GPRMC,210707.000,A,2621.7712,N,8007.5335,W,7.09,,180414,,,A*5C
$GPGGA,210708.000,2621.7718,N,8007.5333,W,1,0,,,M,,M,,*5B
$GPRMC,210708.000,A,2621.7718,N,8007.5333,W,6.82,,180414,,,A*5D
$GPGGA,210709.000,2621.7727,N,8007.5330,W,1,0,,,M,,M,,*55
$GPRMC,210709.000,A,2621.7727,N,8007.5330,W,6.27,,180414,,,A*5C
$GPGGA,210710.000,2621.7739,N,8007.5320,W,1,0,,,M,,M,,*53
$GPRMC,210710.000,A,2621.7739,N,8007.5320,W,5.21,,180414,,,A*5F
$GPGGA,210711.000,2621.7751,N,8007.5308,W,1,0,,,M,,M,,*56
$GPRMC,210711.000,A,2621.7751,N,8007.5308,W,4.46,,180414,,,A*5A
$GPGGA,210712.000,2621.7759,N,8007.5303,W,1,0,,,M,,M,,*56
$GPRMC,210712.000,A,2621.7759,N,8007.5303,W,4.06,,180414,,,A*5E
$GPGGA,210713.000,2621.7766,N,8007.5296,W,1,0,,,M,,M,,*56
$GPRMC,210713.000,A,2621.7766,N,8007.5296,W,3.89,,180414,,,A*5E
$GPGGA,210714.000,2621.7777,N,8007.5283,W,1,0,,,M,,M,,*55
$GPRMC,210714.000,A,2621.7777,N,8007.5283,W,3.66,,180414,,,A*5C
$GPGGA,210715.000,2621.7792,N,8007.5267,W,1,0,,,M,,M,,*55
$GPRMC,210715.000,A,2621.7792,N,8007.5267,W,3.46,,180414,,,A*5E
$GPGGA,210716.000,2621.7797,N,8007.5263,W,1,0,,,M,,M,,*57
$GPRMC,210716.000,A,2621.7797,N,8007.5263,W,4.13,,180414,,,A*5B
$GPGGA,210717.000,2621.7803,N,8007.5252,W,1,0,,,M,,M,,*56
$GPRMC,210717.000,A,2621.7803,N,8007.5252,W,3.76,,180414,,,A*5E
$GPGGA,210718.000,2621.7808,N,8007.5243,W,1,0,,,M,,M,,*52
$GPRMC,210718.000,A,2621.7808,N,8007.5243,W,3.75,,180414,,,A*59
$GPGGA,210719.000,2621.7806,N,8007.5242,W,1,0,,,M,,M,,*5C
$GPRMC,210719.000,A,2621.7806,N,8007.5242,W,4.17,,180414,,,A*54
$GPGGA,210720.000,2621.7810,N,8007.5234,W,1,0,,,M,,M,,*50
$GPRMC,210720.000,A,2621.7810,N,8007.5234,W,4.17,,180414,,,A*58
$GPGGA,210721.000,2621.7814,N,8007.5222,W,1,0,,,M,,M,,*52
$GPRMC,210721.000,A,2621.7814,N,8007.5222,W,3.42,,180414,,,A*5D
$GPGGA,210722.000,2621.7818,N,8007.5211,W,1,0,,,M,,M,,*5D
